[
  {
    "address": "37 West King Street",
    "city": "Littlestown",
    "county": "Adams",
    "lat": 39.7441916,
    "lon": -77.08958142,
    "name": "Adams County Wildlife Care",
    "phone": "7174515616",
    "state": "PA",
    "website": "",
    "zip": "17340-1403"
  },
  {
    "address": "6000 Verona Road",
    "city": "Verona",
    "county": "Allegheny",
    "lat": 40.48956576,
    "lon": -79.83627971,
    "name": "Humane Animal Rescue Wildlife Center",
    "phone": "4123457300",
    "state": "PA",
    "website": "https://humaneanimalrescue.org/wildlife/",
    "zip": "15147"
  },
  {
    "address": "100 Bitting Rd",
    "city": "Alburtis",
    "county": "Berks",
    "lat": 40.45022368,
    "lon": -75.65123213,
    "name": "Cricket Wildlife Center",
    "phone": "7173819893",
    "state": "PA",
    "website": "",
    "zip": "18011"
  },
  {
    "address": "PO Box 82",
    "city": "Metztown",
    "county": "Berks",
    "lat": 40.516196,
    "lon": -75.635442,
    "name": "Pennsylvania Bat Conservation and Rehabilitation",
    "phone": "4849080231",
    "state": "PA",
    "website": "http://pabatrescue.org/",
    "zip": "19539"
  },
  {
    "address": "1531 Upper Stump Rd",
    "city": "Chalfont",
    "county": "Bucks",
    "lat": 40.34433678,
    "lon": -75.19757803,
    "name": "AARK Wildlife Rehab. & Education Center, Inc.",
    "phone": "2152491938",
    "state": "PA",
    "website": "http://www.aark.org/",
    "zip": "18914"
  },
  {
    "address": "120 Forsythe Road",
    "city": "Valencia",
    "county": "Butler",
    "lat": 40.70334544,
    "lon": -79.9565371,
    "name": "Wildbird Recovery, Inc.",
    "phone": "7248981788",
    "state": "PA",
    "website": "http://www.wildbirdrecovery.org/",
    "zip": "16059"
  },
  {
    "address": "151 E. White Bear Dr",
    "city": "Summit Hill",
    "county": "Carbon",
    "lat": 40.81921449,
    "lon": -75.86117672,
    "name": "Carbon County Environmental Education Center",
    "phone": "5706458597",
    "state": "PA",
    "website": "http://www.carboneec.org/",
    "zip": "18250"
  },
  {
    "address": "156 Natural Way",
    "city": "Port Matilda",
    "county": "Centre",
    "lat": 40.8258278,
    "lon": -78.0138835,
    "name": "Centre Wildlife Care",
    "phone": "8146920004",
    "state": "PA",
    "website": "http://www.wildaboutanimals.net/",
    "zip": "16870"
  },
  {
    "address": "2030 Diamond Rock Rd",
    "city": "Malvern",
    "county": "Chester",
    "lat": 40.07779585,
    "lon": -75.49591555,
    "name": "Diamond Rock Wildlife Rehabilitation Clinic",
    "phone": "6102400883",
    "state": "PA",
    "website": "http://www.diamondrockwildlife.org/",
    "zip": "19355"
  },
  {
    "address": "21601 Stull Road",
    "city": "Saegertown",
    "county": "Crawford",
    "lat": 41.74787983,
    "lon": -80.11477266,
    "name": "Tamarack Wildlife Center",
    "phone": "8147632574",
    "state": "PA",
    "website": "http://www.tamarackwildlife.org/",
    "zip": "16433"
  },
  {
    "address": "408 Wiconisco St",
    "city": "Lykins",
    "county": "Dauphin",
    "lat": 40.574863,
    "lon": -76.689338,
    "name": "Dauphin County Wildlife Center",
    "phone": "7173196049",
    "state": "PA",
    "website": "",
    "zip": "17048"
  },
  {
    "address": "2100 Stone Mill Rd",
    "city": "Lancaster",
    "county": "Lancaster",
    "lat": 40.03119728,
    "lon": -76.35977236,
    "name": "Acorn Acres Wildlife Rehabilitation",
    "phone": "7173274811",
    "state": "PA",
    "website": "https://acornacreswr.com/",
    "zip": "17603"
  },
  {
    "address": "10 Elizabeth St PO Box 38",
    "city": "Washington Boro",
    "county": "Lancaster",
    "lat": 39.99389,
    "lon": -76.470836,
    "name": "Raven Ridge Wildlife Center",
    "phone": "7178082652",
    "state": "PA",
    "website": "http://ravenridgewildlifecenter.com/",
    "zip": "17582"
  },
  {
    "address": "2182 State Route 29 Hwy",
    "city": "Hunlock Creek",
    "county": "Luzerne",
    "lat": 41.266151,
    "lon": -76.064347,
    "name": "Episode 4 Wildlife Rehabilitation Center",
    "phone": "5709055737",
    "state": "PA",
    "website": "",
    "zip": "18621"
  },
  {
    "address": "304 South Pine Run Road",
    "city": "Linden",
    "county": "Lycoming",
    "lat": 41.212043,
    "lon": -77.177549,
    "name": "Good Samaritan Wildlife",
    "phone": "5704472785",
    "state": "PA",
    "website": "https://goodsamaritanwildlife.com/",
    "zip": "17744"
  },
  {
    "address": "1161 Cherry Drive",
    "city": "Stroudsburg",
    "county": "Monroe",
    "lat": 40.91479951,
    "lon": -75.2699995,
    "name": "Pocono Wildlife Rehab. Center",
    "phone": "5704020223",
    "state": "PA",
    "website": "http://poconowildlife.com/",
    "zip": "18360"
  },
  {
    "address": "2815 Township Line Road",
    "city": "Norristown",
    "county": "Montgomery",
    "lat": 40.17430149,
    "lon": -75.35255435,
    "name": "Philadelphia Metro Wildlife Center",
    "phone": "2674169453",
    "state": "PA",
    "website": "http://phillywildlife.org/",
    "zip": "19403"
  },
  {
    "address": "64 Clearview Drive",
    "city": "Danville",
    "county": "Montour",
    "lat": 40.98232955,
    "lon": -76.57421952,
    "name": "Mark and Kathy Guilfoose",
    "phone": "5702710273",
    "state": "PA",
    "website": "",
    "zip": "17821"
  },
  {
    "address": "304 Port Royal Ave",
    "city": "Philadelphia",
    "county": "Philadelphia",
    "lat": 40.05359038,
    "lon": -75.24722926,
    "name": "Schuylkill Wildlife Rehabilitation Center",
    "phone": "2154827300",
    "state": "PA",
    "website": "",
    "zip": "19128"
  },
  {
    "address": "41 East 2nd Mountain Rd",
    "city": "Pottsville",
    "county": "Schuylkill",
    "lat": 40.65563176,
    "lon": -76.15349896,
    "name": "Helping Hands Wildlife Center",
    "phone": "5704976414",
    "state": "PA",
    "website": "http://helpinghandswildlifecenter.org/",
    "zip": "17901"
  },
  {
    "address": "300 Moon Hill Dr",
    "city": "Schuylkil Haven",
    "county": "Schuylkill",
    "lat": 40.5988406,
    "lon": -76.20065507,
    "name": "Red Creek Wildlife Center",
    "phone": "5707394393",
    "state": "PA",
    "website": "https://redcreekwildlifecenter.com/",
    "zip": "17972"
  },
  {
    "address": "363 Mountain Road",
    "city": "Penns Creek",
    "county": "Snyder",
    "lat": 40.8559893,
    "lon": -77.0769238,
    "name": "T&D Cats of the World",
    "phone": "5708373377",
    "state": "PA",
    "website": "",
    "zip": "17862"
  },
  {
    "address": "735 NightHawk Dr",
    "city": "Mount Pleasant",
    "county": "Westmoreland",
    "lat": 40.18400205,
    "lon": -79.520376,
    "name": "Forest Friends Mt. Pleasant",
    "phone": "4127324076",
    "state": "PA",
    "website": "",
    "zip": "15666"
  },
  {
    "address": "836 Chestnut Street",
    "city": "Youngwood",
    "county": "Westmoreland",
    "lat": 40.2404709,
    "lon": -79.58422005,
    "name": "Wildlife Works, Inc.",
    "phone": "7249256862",
    "state": "PA",
    "website": "https://www.wildlifeworksinc.org/",
    "zip": "15697"
  },
  {
    "address": "921 N. Circle Dr",
    "city": "Dover",
    "county": "York",
    "lat": 40.06268038,
    "lon": -76.85254406,
    "name": "West Shore Wildlife Center",
    "phone": "7172689574",
    "state": "PA",
    "website": "https://westshorewildlife.org/",
    "zip": "17315"
  }
]
